{
	"schools": {
		"school": [
			{
				"gsId": "2",
				"name": "Bay Farm",
				"type": "public",
				"gradeRange": "K-8",
				"enrollment": "591",
				"gsRating": "9",
				"parentRating": "5",
				"city": "Alameda",
				"state": "CA",
				"districtId": "1",
				"district": "Alameda Unified School District",
				"districtNCESId": "0601770",
				"address": "200 Aughinbaugh Way, \nAlameda, CA  94502",
				"phone": "(510) 748-4010",
				"fax": "(510) 865-2194",
				"website": "http://bayfarm.alamedausd.ca.schoolloop.com",
				"ncesId": "060177000006",
				"lat": "37.739",
				"lon": "-122.25195",
				"overviewLink": "https://www.greatschools.org/california/alameda/2-Bay-Farm/?utm_source=GSAPI&utm_medium=referral",
				"ratingsLink": "https://www.greatschools.org/california/alameda/2-Bay-Farm/?utm_source=GSAPI&utm_medium=referral",
				"reviewsLink": "https://www.greatschools.org/california/alameda/2-Bay-Farm/?utm_source=GSAPI&utm_medium=referral#Reviews",
				"distance": "0.41",
				"schoolStatsLink": "https://www.greatschools.org/california/alameda/2-Bay-Farm/?utm_source=GSAPI&utm_medium=referral"
			},
			{
				"gsId": "4",
				"name": "Amelia Earhart Elementary School",
				"type": "public",
				"gradeRange": "K-5",
				"enrollment": "622",
				"gsRating": "9",
				"parentRating": "5",
				"city": "Alameda",
				"state": "CA",
				"districtId": "1",
				"district": "Alameda Unified School District",
				"districtNCESId": "0601770",
				"address": "400 Packet Landing Road, \nAlameda, CA  94502",
				"phone": "(510) 748-4003",
				"fax": "(510) 523-5837",
				"website": "http://earhart.alamedausd.ca.schoolloop.com",
				"ncesId": "060177000043",
				"lat": "37.74529",
				"lon": "-122.23928",
				"overviewLink": "https://www.greatschools.org/california/alameda/4-Amelia-Earhart-Elementary-School/?utm_source=GSAPI&utm_medium=referral",
				"ratingsLink": "https://www.greatschools.org/california/alameda/4-Amelia-Earhart-Elementary-School/?utm_source=GSAPI&utm_medium=referral",
				"reviewsLink": "https://www.greatschools.org/california/alameda/4-Amelia-Earhart-Elementary-School/?utm_source=GSAPI&utm_medium=referral#Reviews",
				"distance": "0.94",
				"schoolStatsLink": "https://www.greatschools.org/california/alameda/4-Amelia-Earhart-Elementary-School/?utm_source=GSAPI&utm_medium=referral"
			},
			{
				"gsId": "14",
				"name": "Frank Otis Elementary School",
				"type": "public",
				"gradeRange": "K-5",
				"enrollment": "593",
				"gsRating": "7",
				"parentRating": "4",
				"city": "Alameda",
				"state": "CA",
				"districtId": "1",
				"district": "Alameda Unified School District",
				"districtNCESId": "0601770",
				"address": "3010 Fillmore Street, \nAlameda, CA  94501",
				"phone": "(510) 748-4013",
				"fax": "(510) 523-6880",
				"website": "http://otis.alamedausd.ca.schoolloop.com",
				"ncesId": "060177000054",
				"lat": "37.75403",
				"lon": "-122.23799",
				"overviewLink": "https://www.greatschools.org/california/alameda/14-Frank-Otis-Elementary-School/?utm_source=GSAPI&utm_medium=referral",
				"ratingsLink": "https://www.greatschools.org/california/alameda/14-Frank-Otis-Elementary-School/?utm_source=GSAPI&utm_medium=referral",
				"reviewsLink": "https://www.greatschools.org/california/alameda/14-Frank-Otis-Elementary-School/?utm_source=GSAPI&utm_medium=referral#Reviews",
				"distance": "1.51",
				"schoolStatsLink": "https://www.greatschools.org/california/alameda/14-Frank-Otis-Elementary-School/?utm_source=GSAPI&utm_medium=referral"
			},
			{
				"gsId": "10",
				"name": "Lincoln Middle School",
				"type": "public",
				"gradeRange": "6-8",
				"enrollment": "888",
				"gsRating": "9",
				"parentRating": "4",
				"city": "Alameda",
				"state": "CA",
				"districtId": "1",
				"district": "Alameda Unified School District",
				"districtNCESId": "0601770",
				"address": "1250 Fernside Boulevard, \nAlameda, CA  94501",
				"phone": "(510) 748-4018",
				"fax": "(510) 523-6217",
				"website": "http://lms.alamedausd.ca.schoolloop.com",
				"ncesId": "060177000049",
				"lat": "37.752243",
				"lon": "-122.23276",
				"overviewLink": "https://www.greatschools.org/california/alameda/10-Lincoln-Middle-School/?utm_source=GSAPI&utm_medium=referral",
				"ratingsLink": "https://www.greatschools.org/california/alameda/10-Lincoln-Middle-School/?utm_source=GSAPI&utm_medium=referral",
				"reviewsLink": "https://www.greatschools.org/california/alameda/10-Lincoln-Middle-School/?utm_source=GSAPI&utm_medium=referral#Reviews",
				"distance": "1.54",
				"schoolStatsLink": "https://www.greatschools.org/california/alameda/10-Lincoln-Middle-School/?utm_source=GSAPI&utm_medium=referral"
			},
			{
				"gsId": "12",
				"name": "Donald D. Lum Elementary School",
				"type": "public",
				"gradeRange": "4-5",
				"enrollment": "520",
				"gsRating": "9",
				"parentRating": "4",
				"city": "Alameda",
				"state": "CA",
				"districtId": "1",
				"district": "Alameda Unified School District",
				"districtNCESId": "0601770",
				"address": "420 Grand Street, \nAlameda, CA  94501",
				"phone": "(510) 748-4015",
				"fax": "(510) 523-6717",
				"website": "http://www.alameda.k12.ca.us",
				"ncesId": "060177000051",
				"lat": "37.761326",
				"lon": "-122.26245",
				"overviewLink": "https://www.greatschools.org/california/alameda/12-Donald-D.-Lum-Elementary-School/?utm_source=GSAPI&utm_medium=referral",
				"ratingsLink": "https://www.greatschools.org/california/alameda/12-Donald-D.-Lum-Elementary-School/?utm_source=GSAPI&utm_medium=referral",
				"reviewsLink": "https://www.greatschools.org/california/alameda/12-Donald-D.-Lum-Elementary-School/?utm_source=GSAPI&utm_medium=referral#Reviews",
				"distance": "2.06",
				"schoolStatsLink": "https://www.greatschools.org/california/alameda/12-Donald-D.-Lum-Elementary-School/?utm_source=GSAPI&utm_medium=referral"
			},
			{
				"gsId": "1",
				"name": "Alameda High School",
				"type": "public",
				"gradeRange": "9-12",
				"enrollment": "1853",
				"gsRating": "9",
				"parentRating": "4",
				"city": "Alameda",
				"state": "CA",
				"districtId": "1",
				"district": "Alameda Unified School District",
				"districtNCESId": "0601770",
				"address": "2201 Encinal Avenue, \nAlameda, CA  94501",
				"phone": "(510) 337-7022",
				"fax": "(510) 521-4740",
				"website": "http://aus.alamedausd.ca.schoolloop.com/",
				"ncesId": "060177000041",
				"lat": "37.764294",
				"lon": "-122.24807",
				"overviewLink": "https://www.greatschools.org/california/alameda/1-Alameda-High-School/?utm_source=GSAPI&utm_medium=referral",
				"ratingsLink": "https://www.greatschools.org/california/alameda/1-Alameda-High-School/?utm_source=GSAPI&utm_medium=referral",
				"reviewsLink": "https://www.greatschools.org/california/alameda/1-Alameda-High-School/?utm_source=GSAPI&utm_medium=referral#Reviews",
				"distance": "2.11",
				"schoolStatsLink": "https://www.greatschools.org/california/alameda/1-Alameda-High-School/?utm_source=GSAPI&utm_medium=referral"
			},
			{
				"gsId": "17",
				"name": "Will C. Wood Middle School",
				"type": "public",
				"gradeRange": "6-8",
				"enrollment": "468",
				"gsRating": "7",
				"parentRating": "4",
				"city": "Alameda",
				"state": "CA",
				"districtId": "1",
				"district": "Alameda Unified School District",
				"districtNCESId": "0601770",
				"address": "420 Grand Street, \nAlameda, CA  94501",
				"phone": "(510) 748-4015",
				"fax": "(510) 523-8829",
				"website": "http://wms.alamedausd.ca.schoolloop.com",
				"ncesId": "060177000057",
				"lat": "37.76303",
				"lon": "-122.26192",
				"overviewLink": "https://www.greatschools.org/california/alameda/17-Will-C.-Wood-Middle-School/?utm_source=GSAPI&utm_medium=referral",
				"ratingsLink": "https://www.greatschools.org/california/alameda/17-Will-C.-Wood-Middle-School/?utm_source=GSAPI&utm_medium=referral",
				"reviewsLink": "https://www.greatschools.org/california/alameda/17-Will-C.-Wood-Middle-School/?utm_source=GSAPI&utm_medium=referral#Reviews",
				"distance": "2.16",
				"schoolStatsLink": "https://www.greatschools.org/california/alameda/17-Will-C.-Wood-Middle-School/?utm_source=GSAPI&utm_medium=referral"
			},
			{
				"gsId": "5",
				"name": "Edison Elementary School",
				"type": "public",
				"gradeRange": "K-5",
				"enrollment": "478",
				"gsRating": "9",
				"parentRating": "4",
				"city": "Alameda",
				"state": "CA",
				"districtId": "1",
				"district": "Alameda Unified School District",
				"districtNCESId": "0601770",
				"address": "2700 Buena Vista Avenue, \nAlameda, CA  94501",
				"phone": "(510) 748-4002",
				"fax": "(510) 523-6131",
				"website": "http://edison.alamedausd.ca.schoolloop.com",
				"ncesId": "060177000044",
				"lat": "37.765083",
				"lon": "-122.23421",
				"overviewLink": "https://www.greatschools.org/california/alameda/5-Edison-Elementary-School/?utm_source=GSAPI&utm_medium=referral",
				"ratingsLink": "https://www.greatschools.org/california/alameda/5-Edison-Elementary-School/?utm_source=GSAPI&utm_medium=referral",
				"reviewsLink": "https://www.greatschools.org/california/alameda/5-Edison-Elementary-School/?utm_source=GSAPI&utm_medium=referral#Reviews",
				"distance": "2.3",
				"schoolStatsLink": "https://www.greatschools.org/california/alameda/5-Edison-Elementary-School/?utm_source=GSAPI&utm_medium=referral"
			},
			{
				"gsId": "8",
				"name": "Henry Haight Elementary School",
				"type": "public",
				"gradeRange": "K-5",
				"enrollment": "438",
				"gsRating": "7",
				"parentRating": "3",
				"city": "Alameda",
				"state": "CA",
				"districtId": "1",
				"district": "Alameda Unified School District",
				"districtNCESId": "0601770",
				"address": "2025 Santa Clara Avenue, \nAlameda, CA  94501",
				"phone": "(510) 748-4005",
				"fax": "(510) 523-6178",
				"website": "http://haightschool.alamedausd.ca.schoolloop.com",
				"ncesId": "060177000047",
				"lat": "37.769333",
				"lon": "-122.25106",
				"overviewLink": "https://www.greatschools.org/california/alameda/8-Henry-Haight-Elementary-School/?utm_source=GSAPI&utm_medium=referral",
				"ratingsLink": "https://www.greatschools.org/california/alameda/8-Henry-Haight-Elementary-School/?utm_source=GSAPI&utm_medium=referral",
				"reviewsLink": "https://www.greatschools.org/california/alameda/8-Henry-Haight-Elementary-School/?utm_source=GSAPI&utm_medium=referral#Reviews",
				"distance": "2.47",
				"schoolStatsLink": "https://www.greatschools.org/california/alameda/8-Henry-Haight-Elementary-School/?utm_source=GSAPI&utm_medium=referral"
			},
			{
				"gsId": "7",
				"name": "Franklin Elementary School",
				"type": "public",
				"gradeRange": "K-5",
				"enrollment": "339",
				"gsRating": "8",
				"parentRating": "5",
				"city": "Alameda",
				"state": "CA",
				"districtId": "1",
				"district": "Alameda Unified School District",
				"districtNCESId": "0601770",
				"address": "1433 San Antonio Avenue, \nAlameda, CA  94501",
				"phone": "(510) 748-4004",
				"fax": "(510) 337-2439",
				"website": "http://franklin.alamedausd.ca.schoolloop.com",
				"ncesId": "060177004337",
				"lat": "37.769035",
				"lon": "-122.2616",
				"overviewLink": "https://www.greatschools.org/california/alameda/7-Franklin-Elementary-School/?utm_source=GSAPI&utm_medium=referral",
				"ratingsLink": "https://www.greatschools.org/california/alameda/7-Franklin-Elementary-School/?utm_source=GSAPI&utm_medium=referral",
				"reviewsLink": "https://www.greatschools.org/california/alameda/7-Franklin-Elementary-School/?utm_source=GSAPI&utm_medium=referral#Reviews",
				"distance": "2.55",
				"schoolStatsLink": "https://www.greatschools.org/california/alameda/7-Franklin-Elementary-School/?utm_source=GSAPI&utm_medium=referral"
			},
			{
				"gsId": "26955",
				"name": "Maya Lin School",
				"type": "public",
				"gradeRange": "K-5",
				"enrollment": "304",
				"gsRating": "5",
				"parentRating": "5",
				"city": "Alameda",
				"state": "CA",
				"districtId": "1",
				"district": "Alameda Unified School District",
				"districtNCESId": "0601770",
				"address": "825 Taylor Street, \nAlameda, CA  94501",
				"phone": "(510) 337-7007",
				"fax": "(510) 523-8798",
				"website": "http://mls-alamedausd-ca.schoolloop.com",
				"ncesId": "060177013107",
				"lat": "37.772724",
				"lon": "-122.27189",
				"overviewLink": "https://www.greatschools.org/california/alameda/26955-Maya-Lin-School/?utm_source=GSAPI&utm_medium=referral",
				"ratingsLink": "https://www.greatschools.org/california/alameda/26955-Maya-Lin-School/?utm_source=GSAPI&utm_medium=referral",
				"reviewsLink": "https://www.greatschools.org/california/alameda/26955-Maya-Lin-School/?utm_source=GSAPI&utm_medium=referral#Reviews",
				"distance": "2.99",
				"schoolStatsLink": "https://www.greatschools.org/california/alameda/26955-Maya-Lin-School/?utm_source=GSAPI&utm_medium=referral"
			},
			{
				"gsId": "188",
				"name": "Brookfield Elementary School",
				"type": "public",
				"gradeRange": "K-5",
				"enrollment": "362",
				"gsRating": "1",
				"parentRating": "3",
				"city": "Oakland",
				"state": "CA",
				"districtId": "14",
				"district": "Oakland Unified School District",
				"districtNCESId": "0628050",
				"address": "401 Jones Avenue, \nOakland, CA  94603",
				"phone": "(510) 639-3310",
				"fax": "(510) 879-2899",
				"website": "http://www.ousd.org/Brookfield",
				"ncesId": "062805004243",
				"lat": "37.73471",
				"lon": "-122.189",
				"overviewLink": "https://www.greatschools.org/california/oakland/188-Brookfield-Elementary-School/?utm_source=GSAPI&utm_medium=referral",
				"ratingsLink": "https://www.greatschools.org/california/oakland/188-Brookfield-Elementary-School/?utm_source=GSAPI&utm_medium=referral",
				"reviewsLink": "https://www.greatschools.org/california/oakland/188-Brookfield-Elementary-School/?utm_source=GSAPI&utm_medium=referral#Reviews",
				"distance": "3.26",
				"schoolStatsLink": "https://www.greatschools.org/california/oakland/188-Brookfield-Elementary-School/?utm_source=GSAPI&utm_medium=referral"
			},
			{
				"gsId": "15",
				"name": "William G. Paden Elementary School",
				"type": "public",
				"gradeRange": "K-5",
				"enrollment": "297",
				"gsRating": "6",
				"parentRating": "4",
				"city": "Alameda",
				"state": "CA",
				"districtId": "1",
				"district": "Alameda Unified School District",
				"districtNCESId": "0601770",
				"address": "444 Central Avenue, \nAlameda, CA  94501",
				"phone": "(510) 748-4014",
				"fax": "(510) 865-9427",
				"website": "http://paden.alamedausd.ca.schoolloop.com",
				"ncesId": "060177000003",
				"lat": "37.771564",
				"lon": "-122.28446",
				"overviewLink": "https://www.greatschools.org/california/alameda/15-William-G.-Paden-Elementary-School/?utm_source=GSAPI&utm_medium=referral",
				"ratingsLink": "https://www.greatschools.org/california/alameda/15-William-G.-Paden-Elementary-School/?utm_source=GSAPI&utm_medium=referral",
				"reviewsLink": "https://www.greatschools.org/california/alameda/15-William-G.-Paden-Elementary-School/?utm_source=GSAPI&utm_medium=referral#Reviews",
				"distance": "3.28",
				"schoolStatsLink": "https://www.greatschools.org/california/alameda/15-William-G.-Paden-Elementary-School/?utm_source=GSAPI&utm_medium=referral"
			},
			{
				"gsId": "241",
				"name": "Bridges Academy",
				"type": "public",
				"gradeRange": "K-5",
				"enrollment": "440",
				"gsRating": "1",
				"parentRating": "4",
				"city": "Oakland",
				"state": "CA",
				"districtId": "14",
				"district": "Oakland Unified School District",
				"districtNCESId": "0628050",
				"address": "1325 53rd Avenue, \nOakland, CA  94601",
				"phone": "(510) 535-3876",
				"fax": "(510) 535-3875",
				"website": "http://www.bridgesatmelrose.org",
				"ncesId": "062805004301",
				"lat": "37.76776",
				"lon": "-122.2065",
				"overviewLink": "https://www.greatschools.org/california/oakland/241-Bridges-Academy/?utm_source=GSAPI&utm_medium=referral",
				"ratingsLink": "https://www.greatschools.org/california/oakland/241-Bridges-Academy/?utm_source=GSAPI&utm_medium=referral",
				"reviewsLink": "https://www.greatschools.org/california/oakland/241-Bridges-Academy/?utm_source=GSAPI&utm_medium=referral#Reviews",
				"distance": "3.29",
				"schoolStatsLink": "https://www.greatschools.org/california/oakland/241-Bridges-Academy/?utm_source=GSAPI&utm_medium=referral"
			},
			{
				"gsId": "11911",
				"name": "International Community School",
				"type": "public",
				"gradeRange": "K-5",
				"enrollment": "322",
				"gsRating": "2",
				"parentRating": "4",
				"city": "Oakland",
				"state": "CA",
				"districtId": "14",
				"district": "Oakland Unified School District",
				"districtNCESId": "0628050",
				"address": "2825 International Boulevard, \nOakland, CA  94601",
				"phone": "(510) 532-5400",
				"fax": "(510) 261-2024",
				"website": "http://ics.ousd.k12.ca.us",
				"ncesId": "062805008678",
				"lat": "37.78008",
				"lon": "-122.2305",
				"overviewLink": "https://www.greatschools.org/california/oakland/11911-International-Community-School/?utm_source=GSAPI&utm_medium=referral",
				"ratingsLink": "https://www.greatschools.org/california/oakland/11911-International-Community-School/?utm_source=GSAPI&utm_medium=referral",
				"reviewsLink": "https://www.greatschools.org/california/oakland/11911-International-Community-School/?utm_source=GSAPI&utm_medium=referral#Reviews",
				"distance": "3.36",
				"schoolStatsLink": "https://www.greatschools.org/california/oakland/11911-International-Community-School/?utm_source=GSAPI&utm_medium=referral"
			},
			{
				"gsId": "12557",
				"name": "Think College Now School",
				"type": "public",
				"gradeRange": "K-5",
				"enrollment": "306",
				"gsRating": "3",
				"parentRating": "5",
				"city": "Oakland",
				"state": "CA",
				"districtId": "14",
				"district": "Oakland Unified School District",
				"districtNCESId": "0628050",
				"address": "2825 International Boulevard, \nOakland, CA  94601",
				"phone": "(510) 532-5500",
				"fax": "(510) 879-5430",
				"website": "http://thinkcollegenow.org",
				"ncesId": "062805011294",
				"lat": "37.78008",
				"lon": "-122.2305",
				"overviewLink": "https://www.greatschools.org/california/oakland/12557-Think-College-Now-School/?utm_source=GSAPI&utm_medium=referral",
				"ratingsLink": "https://www.greatschools.org/california/oakland/12557-Think-College-Now-School/?utm_source=GSAPI&utm_medium=referral",
				"reviewsLink": "https://www.greatschools.org/california/oakland/12557-Think-College-Now-School/?utm_source=GSAPI&utm_medium=referral#Reviews",
				"distance": "3.36",
				"schoolStatsLink": "https://www.greatschools.org/california/oakland/12557-Think-College-Now-School/?utm_source=GSAPI&utm_medium=referral"
			},
			{
				"gsId": "13779",
				"name": "Alameda Adult",
				"type": "public",
				"gradeRange": "n/a",
				"city": "Alameda",
				"state": "CA",
				"districtId": "1",
				"district": "Alameda Unified School District",
				"districtNCESId": "0601770",
				"address": "1300 Third Street, \nAlameda, CA  94501",
				"phone": "(510) 522-3858",
				"fax": "(510) 522-0846",
				"website": "",
				"ncesId": "060177013205",
				"lat": "37.770866",
				"lon": "-122.2885",
				"overviewLink": "https://www.greatschools.org/california/alameda/13779-Alameda-Adult/?utm_source=GSAPI&utm_medium=referral",
				"ratingsLink": "https://www.greatschools.org/california/alameda/13779-Alameda-Adult/?utm_source=GSAPI&utm_medium=referral",
				"reviewsLink": "https://www.greatschools.org/california/alameda/13779-Alameda-Adult/?utm_source=GSAPI&utm_medium=referral#Reviews",
				"distance": "3.39",
				"schoolStatsLink": "https://www.greatschools.org/california/alameda/13779-Alameda-Adult/?utm_source=GSAPI&utm_medium=referral"
			},
			{
				"gsId": "9",
				"name": "Island High (Continuation) School",
				"type": "public",
				"gradeRange": "9-12",
				"enrollment": "117",
				"parentRating": "4",
				"city": "Alameda",
				"state": "CA",
				"districtId": "1",
				"district": "Alameda Unified School District",
				"districtNCESId": "0601770",
				"address": "500 Pacific Avenue, \nAlameda, CA  94501",
				"phone": "(510) 748-4024",
				"fax": "(510) 769-7417",
				"website": "http://ihs.alamedausd.ca.schoolloop.com/",
				"ncesId": "060177000048",
				"lat": "37.775723",
				"lon": "-122.28124",
				"overviewLink": "https://www.greatschools.org/california/alameda/9-Island-High-(Continuation)-School/?utm_source=GSAPI&utm_medium=referral",
				"ratingsLink": "https://www.greatschools.org/california/alameda/9-Island-High-(Continuation)-School/?utm_source=GSAPI&utm_medium=referral",
				"reviewsLink": "https://www.greatschools.org/california/alameda/9-Island-High-(Continuation)-School/?utm_source=GSAPI&utm_medium=referral#Reviews",
				"distance": "3.42",
				"schoolStatsLink": "https://www.greatschools.org/california/alameda/9-Island-High-(Continuation)-School/?utm_source=GSAPI&utm_medium=referral"
			},
			{
				"gsId": "6",
				"name": "Encinal Junior/Senior High",
				"type": "public",
				"gradeRange": "6-12",
				"enrollment": "1336",
				"gsRating": "6",
				"parentRating": "4",
				"city": "Alameda",
				"state": "CA",
				"districtId": "1",
				"district": "Alameda Unified School District",
				"districtNCESId": "0601770",
				"address": "210 Central Avenue, \nAlameda, CA  94501",
				"phone": "(510) 748-4023",
				"fax": "",
				"website": "http://ehs.alamedausd.ca.schoolloop.com/",
				"ncesId": "060177000045",
				"lat": "37.772766",
				"lon": "-122.289",
				"overviewLink": "https://www.greatschools.org/california/alameda/6-Encinal-Junior-Senior-High/?utm_source=GSAPI&utm_medium=referral",
				"ratingsLink": "https://www.greatschools.org/california/alameda/6-Encinal-Junior-Senior-High/?utm_source=GSAPI&utm_medium=referral",
				"reviewsLink": "https://www.greatschools.org/california/alameda/6-Encinal-Junior-Senior-High/?utm_source=GSAPI&utm_medium=referral#Reviews",
				"distance": "3.5",
				"schoolStatsLink": "https://www.greatschools.org/california/alameda/6-Encinal-Junior-Senior-High/?utm_source=GSAPI&utm_medium=referral"
			},
			{
				"gsId": "26957",
				"name": "Fremont High",
				"type": "public",
				"gradeRange": "9-12",
				"enrollment": "773",
				"gsRating": "1",
				"city": "Oakland",
				"state": "CA",
				"districtId": "14",
				"district": "Oakland Unified School District",
				"districtNCESId": "0628050",
				"address": "4610 Foothill Boulevard, \nOakland, CA  94601",
				"phone": "(510) 434-5257",
				"fax": "",
				"website": "",
				"ncesId": "062805013062",
				"lat": "37.7744",
				"lon": "-122.20972",
				"overviewLink": "https://www.greatschools.org/california/oakland/26957-Fremont-High/?utm_source=GSAPI&utm_medium=referral",
				"ratingsLink": "https://www.greatschools.org/california/oakland/26957-Fremont-High/?utm_source=GSAPI&utm_medium=referral",
				"reviewsLink": "https://www.greatschools.org/california/oakland/26957-Fremont-High/?utm_source=GSAPI&utm_medium=referral#Reviews",
				"distance": "3.53",
				"schoolStatsLink": "https://www.greatschools.org/california/oakland/26957-Fremont-High/?utm_source=GSAPI&utm_medium=referral"
			},
			{
				"gsId": "17091",
				"name": "Coliseum College Prep Academy",
				"type": "public",
				"gradeRange": "6-12",
				"enrollment": "482",
				"gsRating": "4",
				"parentRating": "3",
				"city": "Oakland",
				"state": "CA",
				"districtId": "14",
				"district": "Oakland Unified School District",
				"districtNCESId": "0628050",
				"address": "1390 66th Avenue, \nOakland, CA  94621",
				"phone": "(510) 639-3201",
				"fax": "(510) 639-3214",
				"website": "www.ousd.org/ccpa",
				"ncesId": "062805011920",
				"lat": "37.761974",
				"lon": "-122.19337",
				"overviewLink": "https://www.greatschools.org/california/oakland/17091-Coliseum-College-Prep-Academy/?utm_source=GSAPI&utm_medium=referral",
				"ratingsLink": "https://www.greatschools.org/california/oakland/17091-Coliseum-College-Prep-Academy/?utm_source=GSAPI&utm_medium=referral",
				"reviewsLink": "https://www.greatschools.org/california/oakland/17091-Coliseum-College-Prep-Academy/?utm_source=GSAPI&utm_medium=referral#Reviews",
				"distance": "3.6",
				"schoolStatsLink": "https://www.greatschools.org/california/oakland/17091-Coliseum-College-Prep-Academy/?utm_source=GSAPI&utm_medium=referral"
			},
			{
				"gsId": "17092",
				"name": "Roots International Academy",
				"type": "public",
				"gradeRange": "6-8",
				"enrollment": "330",
				"gsRating": "1",
				"parentRating": "4",
				"city": "Oakland",
				"state": "CA",
				"districtId": "14",
				"district": "Oakland Unified School District",
				"districtNCESId": "0628050",
				"address": "1390 66th Avenue, \nOakland, CA  94621",
				"phone": "(510) 639-3226",
				"fax": "(510) 639-3214",
				"website": "http://ousdms.ousd.k12.ca.us/roots",
				"ncesId": "062805011907",
				"lat": "37.761974",
				"lon": "-122.19337",
				"overviewLink": "https://www.greatschools.org/california/oakland/17092-Roots-International-Academy/?utm_source=GSAPI&utm_medium=referral",
				"ratingsLink": "https://www.greatschools.org/california/oakland/17092-Roots-International-Academy/?utm_source=GSAPI&utm_medium=referral",
				"reviewsLink": "https://www.greatschools.org/california/oakland/17092-Roots-International-Academy/?utm_source=GSAPI&utm_medium=referral#Reviews",
				"distance": "3.6",
				"schoolStatsLink": "https://www.greatschools.org/california/oakland/17092-Roots-International-Academy/?utm_source=GSAPI&utm_medium=referral"
			},
			{
				"gsId": "11913",
				"name": "Urban Promise Academy",
				"type": "public",
				"gradeRange": "6-8",
				"enrollment": "371",
				"gsRating": "2",
				"parentRating": "5",
				"city": "Oakland",
				"state": "CA",
				"districtId": "14",
				"district": "Oakland Unified School District",
				"districtNCESId": "0628050",
				"address": "3031 East 18th Street, \nOakland, CA  94601",
				"phone": "(510) 436-3636",
				"fax": "(510) 436-3638",
				"website": "http://www.urbanpromiseacademy.org",
				"ncesId": "062805008680",
				"lat": "37.782326",
				"lon": "-122.22487",
				"overviewLink": "https://www.greatschools.org/california/oakland/11913-Urban-Promise-Academy/?utm_source=GSAPI&utm_medium=referral",
				"ratingsLink": "https://www.greatschools.org/california/oakland/11913-Urban-Promise-Academy/?utm_source=GSAPI&utm_medium=referral",
				"reviewsLink": "https://www.greatschools.org/california/oakland/11913-Urban-Promise-Academy/?utm_source=GSAPI&utm_medium=referral#Reviews",
				"distance": "3.6",
				"schoolStatsLink": "https://www.greatschools.org/california/oakland/11913-Urban-Promise-Academy/?utm_source=GSAPI&utm_medium=referral"
			},
			{
				"gsId": "32568",
				"name": "Oakland Sol (School Of Language) Dual Language Middle",
				"type": "public",
				"gradeRange": "6-8",
				"city": "Oakland",
				"state": "CA",
				"districtId": "14",
				"district": "Oakland Unified School District",
				"districtNCESId": "0628050",
				"address": "1180 70th Avenue, \nOakland, CA  94621",
				"phone": "(510) 812-8903",
				"fax": "",
				"website": "www.ousd.org",
				"ncesId": "062805014086",
				"lat": "37.75927",
				"lon": "-122.19075",
				"overviewLink": "https://www.greatschools.org/california/oakland/32568-Oakland-Sol-(School-Of-Language)-Dual-Language-Middle/?utm_source=GSAPI&utm_medium=referral",
				"ratingsLink": "https://www.greatschools.org/california/oakland/32568-Oakland-Sol-(School-Of-Language)-Dual-Language-Middle/?utm_source=GSAPI&utm_medium=referral",
				"reviewsLink": "https://www.greatschools.org/california/oakland/32568-Oakland-Sol-(School-Of-Language)-Dual-Language-Middle/?utm_source=GSAPI&utm_medium=referral#Reviews",
				"distance": "3.62",
				"schoolStatsLink": "https://www.greatschools.org/california/oakland/32568-Oakland-Sol-(School-Of-Language)-Dual-Language-Middle/?utm_source=GSAPI&utm_medium=referral"
			},
			{
				"gsId": "17658",
				"name": "Greenleaf Elementary School",
				"type": "public",
				"gradeRange": "K-8",
				"enrollment": "611",
				"gsRating": "4",
				"parentRating": "5",
				"city": "Oakland",
				"state": "CA",
				"districtId": "14",
				"district": "Oakland Unified School District",
				"districtNCESId": "0628050",
				"address": "6328 East 17th Street, \nOakland, CA  94621",
				"phone": "(510) 636-1400",
				"fax": "(510) 636-1411",
				"website": "http://ousdes1.ousd.k12.ca.us/greenleaf",
				"ncesId": "062805012055",
				"lat": "37.764385",
				"lon": "-122.19484",
				"overviewLink": "https://www.greatschools.org/california/oakland/17658-Greenleaf-Elementary-School/?utm_source=GSAPI&utm_medium=referral",
				"ratingsLink": "https://www.greatschools.org/california/oakland/17658-Greenleaf-Elementary-School/?utm_source=GSAPI&utm_medium=referral",
				"reviewsLink": "https://www.greatschools.org/california/oakland/17658-Greenleaf-Elementary-School/?utm_source=GSAPI&utm_medium=referral#Reviews",
				"distance": "3.63",
				"schoolStatsLink": "https://www.greatschools.org/california/oakland/17658-Greenleaf-Elementary-School/?utm_source=GSAPI&utm_medium=referral"
			},
			{
				"gsId": "17671",
				"name": "Community United Elementary School",
				"type": "public",
				"gradeRange": "K-5",
				"enrollment": "408",
				"gsRating": "1",
				"parentRating": "2",
				"city": "Oakland",
				"state": "CA",
				"districtId": "14",
				"district": "Oakland Unified School District",
				"districtNCESId": "0628050",
				"address": "6701 International Boulevard, \nOakland, CA  94621",
				"phone": "(510) 639-2850",
				"fax": "(510) 879-1349",
				"website": "http://ousdes1.ousd.k12.ca.us/communityunited",
				"ncesId": "062805012058",
				"lat": "37.761425",
				"lon": "-122.19188",
				"overviewLink": "https://www.greatschools.org/california/oakland/17671-Community-United-Elementary-School/?utm_source=GSAPI&utm_medium=referral",
				"ratingsLink": "https://www.greatschools.org/california/oakland/17671-Community-United-Elementary-School/?utm_source=GSAPI&utm_medium=referral",
				"reviewsLink": "https://www.greatschools.org/california/oakland/17671-Community-United-Elementary-School/?utm_source=GSAPI&utm_medium=referral#Reviews",
				"distance": "3.65",
				"schoolStatsLink": "https://www.greatschools.org/california/oakland/17671-Community-United-Elementary-School/?utm_source=GSAPI&utm_medium=referral"
			},
			{
				"gsId": "17672",
				"name": "Futures Elementary School",
				"type": "public",
				"gradeRange": "K-5",
				"enrollment": "319",
				"gsRating": "1",
				"parentRating": "5",
				"city": "Oakland",
				"state": "CA",
				"districtId": "14",
				"district": "Oakland Unified School District",
				"districtNCESId": "0628050",
				"address": "6701 International Boulevard, \nOakland, CA  94621",
				"phone": "(510) 636-0520",
				"fax": "(510) 879-1349",
				"website": "",
				"ncesId": "062805012057",
				"lat": "37.761425",
				"lon": "-122.19188",
				"overviewLink": "https://www.greatschools.org/california/oakland/17672-Futures-Elementary-School/?utm_source=GSAPI&utm_medium=referral",
				"ratingsLink": "https://www.greatschools.org/california/oakland/17672-Futures-Elementary-School/?utm_source=GSAPI&utm_medium=referral",
				"reviewsLink": "https://www.greatschools.org/california/oakland/17672-Futures-Elementary-School/?utm_source=GSAPI&utm_medium=referral#Reviews",
				"distance": "3.65",
				"schoolStatsLink": "https://www.greatschools.org/california/oakland/17672-Futures-Elementary-School/?utm_source=GSAPI&utm_medium=referral"
			},
			{
				"gsId": "14052",
				"name": "Alameda Science And Technology Institute",
				"type": "public",
				"gradeRange": "9-12",
				"enrollment": "175",
				"gsRating": "9",
				"parentRating": "4",
				"city": "Alameda",
				"state": "CA",
				"districtId": "1",
				"district": "Alameda Unified School District",
				"districtNCESId": "0601770",
				"address": "555 Atlantic Avenue, \nAlameda, CA  94501",
				"phone": "(510) 748-4021",
				"fax": "(510) 748-4121",
				"website": "https://asti-alamedausd-ca.schoolloop.com",
				"ncesId": "060177010547",
				"lat": "37.779884",
				"lon": "-122.28052",
				"overviewLink": "https://www.greatschools.org/california/alameda/14052-Alameda-Science-And-Technology-Institute/?utm_source=GSAPI&utm_medium=referral",
				"ratingsLink": "https://www.greatschools.org/california/alameda/14052-Alameda-Science-And-Technology-Institute/?utm_source=GSAPI&utm_medium=referral",
				"reviewsLink": "https://www.greatschools.org/california/alameda/14052-Alameda-Science-And-Technology-Institute/?utm_source=GSAPI&utm_medium=referral#Reviews",
				"distance": "3.65",
				"schoolStatsLink": "https://www.greatschools.org/california/alameda/14052-Alameda-Science-And-Technology-Institute/?utm_source=GSAPI&utm_medium=referral"
			},
			{
				"gsId": "11684",
				"name": "Acorn Woodland Elementary School",
				"type": "public",
				"gradeRange": "K-5",
				"enrollment": "292",
				"gsRating": "4",
				"parentRating": "5",
				"city": "Oakland",
				"state": "CA",
				"districtId": "14",
				"district": "Oakland Unified School District",
				"districtNCESId": "0628050",
				"address": "1025 81st Avenue, \nOakland, CA  94621",
				"phone": "(510) 639-3344",
				"fax": "(510) 639-3346",
				"website": "awe.ousd.k12.ca.us",
				"ncesId": "062805010730",
				"lat": "37.75286",
				"lon": "-122.18605",
				"overviewLink": "https://www.greatschools.org/california/oakland/11684-Acorn-Woodland-Elementary-School/?utm_source=GSAPI&utm_medium=referral",
				"ratingsLink": "https://www.greatschools.org/california/oakland/11684-Acorn-Woodland-Elementary-School/?utm_source=GSAPI&utm_medium=referral",
				"reviewsLink": "https://www.greatschools.org/california/oakland/11684-Acorn-Woodland-Elementary-School/?utm_source=GSAPI&utm_medium=referral#Reviews",
				"distance": "3.67",
				"schoolStatsLink": "https://www.greatschools.org/california/oakland/11684-Acorn-Woodland-Elementary-School/?utm_source=GSAPI&utm_medium=referral"
			},
			{
				"gsId": "13927",
				"name": "Encompass Academy Elementary",
				"type": "public",
				"gradeRange": "K-5",
				"enrollment": "334",
				"gsRating": "2",
				"parentRating": "4",
				"city": "Oakland",
				"state": "CA",
				"districtId": "14",
				"district": "Oakland Unified School District",
				"districtNCESId": "0628050",
				"address": "1025 81st Avenue, \nOakland, CA  94621",
				"phone": "(510) 639-3350",
				"fax": "(510) 879-0209",
				"website": "http://encompass.ousd.k12.ca.us",
				"ncesId": "062805010686",
				"lat": "37.75286",
				"lon": "-122.18605",
				"overviewLink": "https://www.greatschools.org/california/oakland/13927-Encompass-Academy-Elementary/?utm_source=GSAPI&utm_medium=referral",
				"ratingsLink": "https://www.greatschools.org/california/oakland/13927-Encompass-Academy-Elementary/?utm_source=GSAPI&utm_medium=referral",
				"reviewsLink": "https://www.greatschools.org/california/oakland/13927-Encompass-Academy-Elementary/?utm_source=GSAPI&utm_medium=referral#Reviews",
				"distance": "3.67",
				"schoolStatsLink": "https://www.greatschools.org/california/oakland/13927-Encompass-Academy-Elementary/?utm_source=GSAPI&utm_medium=referral"
			},
			{
				"gsId": "17517",
				"name": "Global Family School",
				"type": "public",
				"gradeRange": "K-5",
				"enrollment": "454",
				"gsRating": "2",
				"parentRating": "3",
				"city": "Oakland",
				"state": "CA",
				"districtId": "14",
				"district": "Oakland Unified School District",
				"districtNCESId": "0628050",
				"address": "2035 40th Avenue, \nOakland, CA  94601",
				"phone": "(510) 879-1280",
				"fax": "(510) 536-4470",
				"website": "http://ousdes1.ousd.k12.ca.us/globalfamily",
				"ncesId": "062805012053",
				"lat": "37.77935",
				"lon": "-122.21325",
				"overviewLink": "https://www.greatschools.org/california/oakland/17517-Global-Family-School/?utm_source=GSAPI&utm_medium=referral",
				"ratingsLink": "https://www.greatschools.org/california/oakland/17517-Global-Family-School/?utm_source=GSAPI&utm_medium=referral",
				"reviewsLink": "https://www.greatschools.org/california/oakland/17517-Global-Family-School/?utm_source=GSAPI&utm_medium=referral#Reviews",
				"distance": "3.7",
				"schoolStatsLink": "https://www.greatschools.org/california/oakland/17517-Global-Family-School/?utm_source=GSAPI&utm_medium=referral"
			},
			{
				"gsId": "209",
				"name": "Garfield Elementary School",
				"type": "public",
				"gradeRange": "K-5",
				"enrollment": "606",
				"gsRating": "2",
				"parentRating": "4",
				"city": "Oakland",
				"state": "CA",
				"districtId": "14",
				"district": "Oakland Unified School District",
				"districtNCESId": "0628050",
				"address": "1640 22nd Avenue, \nOakland, CA  94606",
				"phone": "(510) 535-2857",
				"fax": "(510) 535-2861",
				"website": "http://ousdes1.ousd.k12.ca.us/garfield",
				"ncesId": "062805004265",
				"lat": "37.786682",
				"lon": "-122.23578",
				"overviewLink": "https://www.greatschools.org/california/oakland/209-Garfield-Elementary-School/?utm_source=GSAPI&utm_medium=referral",
				"ratingsLink": "https://www.greatschools.org/california/oakland/209-Garfield-Elementary-School/?utm_source=GSAPI&utm_medium=referral",
				"reviewsLink": "https://www.greatschools.org/california/oakland/209-Garfield-Elementary-School/?utm_source=GSAPI&utm_medium=referral#Reviews",
				"distance": "3.73",
				"schoolStatsLink": "https://www.greatschools.org/california/oakland/209-Garfield-Elementary-School/?utm_source=GSAPI&utm_medium=referral"
			},
			{
				"gsId": "235",
				"name": "Horace Mann Elementary School",
				"type": "public",
				"gradeRange": "K-5",
				"enrollment": "404",
				"gsRating": "1",
				"parentRating": "3",
				"city": "Oakland",
				"state": "CA",
				"districtId": "14",
				"district": "Oakland Unified School District",
				"districtNCESId": "0628050",
				"address": "5222 Ygnacio Avenue, \nOakland, CA  94601",
				"phone": "(510) 879-1360",
				"fax": "(510) 535-1355",
				"website": "http://horacemann.ousd.ca.campusgrid.net",
				"ncesId": "062805004277",
				"lat": "37.77355",
				"lon": "-122.20245",
				"overviewLink": "https://www.greatschools.org/california/oakland/235-Horace-Mann-Elementary-School/?utm_source=GSAPI&utm_medium=referral",
				"ratingsLink": "https://www.greatschools.org/california/oakland/235-Horace-Mann-Elementary-School/?utm_source=GSAPI&utm_medium=referral",
				"reviewsLink": "https://www.greatschools.org/california/oakland/235-Horace-Mann-Elementary-School/?utm_source=GSAPI&utm_medium=referral#Reviews",
				"distance": "3.74",
				"schoolStatsLink": "https://www.greatschools.org/california/oakland/235-Horace-Mann-Elementary-School/?utm_source=GSAPI&utm_medium=referral"
			},
			{
				"gsId": "234",
				"name": "Madison Park Academy 6-12",
				"type": "public",
				"gradeRange": "6-12",
				"enrollment": "691",
				"gsRating": "3",
				"parentRating": "4",
				"city": "Oakland",
				"state": "CA",
				"districtId": "14",
				"district": "Oakland Unified School District",
				"districtNCESId": "0628050",
				"address": "400 Capistrano Drive, \nOakland, CA  94603",
				"phone": "(510) 636-2701",
				"fax": "(510) 879-2159",
				"website": "http://ousdms.ousd.k12.ca.us/madison",
				"ncesId": "062805004278",
				"lat": "37.727776",
				"lon": "-122.17918",
				"overviewLink": "https://www.greatschools.org/california/oakland/234-Madison-Park-Academy-6-12/?utm_source=GSAPI&utm_medium=referral",
				"ratingsLink": "https://www.greatschools.org/california/oakland/234-Madison-Park-Academy-6-12/?utm_source=GSAPI&utm_medium=referral",
				"reviewsLink": "https://www.greatschools.org/california/oakland/234-Madison-Park-Academy-6-12/?utm_source=GSAPI&utm_medium=referral#Reviews",
				"distance": "3.83",
				"schoolStatsLink": "https://www.greatschools.org/california/oakland/234-Madison-Park-Academy-6-12/?utm_source=GSAPI&utm_medium=referral"
			},
			{
				"gsId": "11905",
				"name": "Life Academy",
				"type": "public",
				"gradeRange": "6-12",
				"enrollment": "473",
				"gsRating": "4",
				"parentRating": "5",
				"city": "Oakland",
				"state": "CA",
				"districtId": "14",
				"district": "Oakland Unified School District",
				"districtNCESId": "0628050",
				"address": "2101 35th Avenue, \nOakland, CA  94601",
				"phone": "(510) 534-0282",
				"fax": "(510) 534-0283",
				"website": "http://lifeacademyoak.org/",
				"ncesId": "062805008676",
				"lat": "37.784286",
				"lon": "-122.21676",
				"overviewLink": "https://www.greatschools.org/california/oakland/11905-Life-Academy/?utm_source=GSAPI&utm_medium=referral",
				"ratingsLink": "https://www.greatschools.org/california/oakland/11905-Life-Academy/?utm_source=GSAPI&utm_medium=referral",
				"reviewsLink": "https://www.greatschools.org/california/oakland/11905-Life-Academy/?utm_source=GSAPI&utm_medium=referral#Reviews",
				"distance": "3.91",
				"schoolStatsLink": "https://www.greatschools.org/california/oakland/11905-Life-Academy/?utm_source=GSAPI&utm_medium=referral"
			},
			{
				"gsId": "17037",
				"name": "United For Success Academy",
				"type": "public",
				"gradeRange": "6-8",
				"enrollment": "382",
				"gsRating": "1",
				"parentRating": "4",
				"city": "Oakland",
				"state": "CA",
				"districtId": "14",
				"district": "Oakland Unified School District",
				"districtNCESId": "0628050",
				"address": "2101 35th Avenue, \nOakland, CA  94601",
				"phone": "(510) 535-3880",
				"fax": "(510) 879-1493",
				"website": "http://ousdms.ousd.k12.ca.us/ufs",
				"ncesId": "062805011909",
				"lat": "37.784286",
				"lon": "-122.21676",
				"overviewLink": "https://www.greatschools.org/california/oakland/17037-United-For-Success-Academy/?utm_source=GSAPI&utm_medium=referral",
				"ratingsLink": "https://www.greatschools.org/california/oakland/17037-United-For-Success-Academy/?utm_source=GSAPI&utm_medium=referral",
				"reviewsLink": "https://www.greatschools.org/california/oakland/17037-United-For-Success-Academy/?utm_source=GSAPI&utm_medium=referral#Reviews",
				"distance": "3.91",
				"schoolStatsLink": "https://www.greatschools.org/california/oakland/17037-United-For-Success-Academy/?utm_source=GSAPI&utm_medium=referral"
			},
			{
				"gsId": "260",
				"name": "Madison Park Academy Tk-5",
				"type": "public",
				"gradeRange": "K-5",
				"enrollment": "278",
				"gsRating": "2",
				"parentRating": "4",
				"city": "Oakland",
				"state": "CA",
				"districtId": "14",
				"district": "Oakland Unified School District",
				"districtNCESId": "0628050",
				"address": "470 El Paseo Drive, \nOakland, CA  94603",
				"phone": "(510) 636-7919",
				"fax": "(510) 636-7920",
				"website": "",
				"ncesId": "062805004316",
				"lat": "37.728043",
				"lon": "-122.17749",
				"overviewLink": "https://www.greatschools.org/california/oakland/260-Madison-Park-Academy-Tk-5/?utm_source=GSAPI&utm_medium=referral",
				"ratingsLink": "https://www.greatschools.org/california/oakland/260-Madison-Park-Academy-Tk-5/?utm_source=GSAPI&utm_medium=referral",
				"reviewsLink": "https://www.greatschools.org/california/oakland/260-Madison-Park-Academy-Tk-5/?utm_source=GSAPI&utm_medium=referral#Reviews",
				"distance": "3.92",
				"schoolStatsLink": "https://www.greatschools.org/california/oakland/260-Madison-Park-Academy-Tk-5/?utm_source=GSAPI&utm_medium=referral"
			},
			{
				"gsId": "254",
				"name": "Roosevelt Middle School",
				"type": "public",
				"gradeRange": "6-8",
				"enrollment": "550",
				"gsRating": "3",
				"parentRating": "3",
				"city": "Oakland",
				"state": "CA",
				"districtId": "14",
				"district": "Oakland Unified School District",
				"districtNCESId": "0628050",
				"address": "1926 19th Avenue, \nOakland, CA  94606",
				"phone": "(510) 535-2877",
				"fax": "(510) 535-2883",
				"website": "http://www.rooseveltbulldogs.org",
				"ncesId": "062805004312",
				"lat": "37.789692",
				"lon": "-122.23793",
				"overviewLink": "https://www.greatschools.org/california/oakland/254-Roosevelt-Middle-School/?utm_source=GSAPI&utm_medium=referral",
				"ratingsLink": "https://www.greatschools.org/california/oakland/254-Roosevelt-Middle-School/?utm_source=GSAPI&utm_medium=referral",
				"reviewsLink": "https://www.greatschools.org/california/oakland/254-Roosevelt-Middle-School/?utm_source=GSAPI&utm_medium=referral#Reviews",
				"distance": "3.92",
				"schoolStatsLink": "https://www.greatschools.org/california/oakland/254-Roosevelt-Middle-School/?utm_source=GSAPI&utm_medium=referral"
			},
			{
				"gsId": "16978",
				"name": "Ruby Bridges Elementary School",
				"type": "public",
				"gradeRange": "K-5",
				"enrollment": "535",
				"gsRating": "3",
				"parentRating": "5",
				"city": "Alameda",
				"state": "CA",
				"districtId": "1",
				"district": "Alameda Unified School District",
				"districtNCESId": "0601770",
				"address": "351 Jack London Avenue, \nAlameda, CA  94501",
				"phone": "(510) 748-4006",
				"fax": "(510) 748-8314",
				"website": "http://rubybridges.alamedausd.ca.schoolloop.com/",
				"ncesId": "060177011549",
				"lat": "37.781834",
				"lon": "-122.28614",
				"overviewLink": "https://www.greatschools.org/california/alameda/16978-Ruby-Bridges-Elementary-School/?utm_source=GSAPI&utm_medium=referral",
				"ratingsLink": "https://www.greatschools.org/california/alameda/16978-Ruby-Bridges-Elementary-School/?utm_source=GSAPI&utm_medium=referral",
				"reviewsLink": "https://www.greatschools.org/california/alameda/16978-Ruby-Bridges-Elementary-School/?utm_source=GSAPI&utm_medium=referral#Reviews",
				"distance": "3.92",
				"schoolStatsLink": "https://www.greatschools.org/california/alameda/16978-Ruby-Bridges-Elementary-School/?utm_source=GSAPI&utm_medium=referral"
			},
			{
				"gsId": "292",
				"name": "Garfield Elementary School",
				"type": "public",
				"gradeRange": "K-5",
				"enrollment": "436",
				"gsRating": "3",
				"parentRating": "5",
				"city": "San Leandro",
				"state": "CA",
				"districtId": "17",
				"district": "San Leandro Unified School District",
				"districtNCESId": "0634680",
				"address": "13050 Aurora Drive, \nSan Leandro, CA  94577",
				"phone": "(510) 618-4300",
				"fax": "(510) 352-5399",
				"website": "http://www.sanleandro.k12.ca.us/garfield",
				"ncesId": "063468005833",
				"lat": "37.70401",
				"lon": "-122.18606",
				"overviewLink": "https://www.greatschools.org/california/san-leandro/292-Garfield-Elementary-School/?utm_source=GSAPI&utm_medium=referral",
				"ratingsLink": "https://www.greatschools.org/california/san-leandro/292-Garfield-Elementary-School/?utm_source=GSAPI&utm_medium=referral",
				"reviewsLink": "https://www.greatschools.org/california/san-leandro/292-Garfield-Elementary-School/?utm_source=GSAPI&utm_medium=referral#Reviews",
				"distance": "4.01",
				"schoolStatsLink": "https://www.greatschools.org/california/san-leandro/292-Garfield-Elementary-School/?utm_source=GSAPI&utm_medium=referral"
			},
			{
				"gsId": "216",
				"name": "New Highland Academy",
				"type": "public",
				"gradeRange": "K-5",
				"enrollment": "358",
				"gsRating": "1",
				"parentRating": "5",
				"city": "Oakland",
				"state": "CA",
				"districtId": "14",
				"district": "Oakland Unified School District",
				"districtNCESId": "0628050",
				"address": "8521 A Street, \nOakland, CA  94621",
				"phone": "(510) 729-7723",
				"fax": "(510) 729-7725",
				"website": "http://ousdes2.ousd.k12.ca.us/newhighland",
				"ncesId": "062805004274",
				"lat": "37.752094",
				"lon": "-122.17864",
				"overviewLink": "https://www.greatschools.org/california/oakland/216-New-Highland-Academy/?utm_source=GSAPI&utm_medium=referral",
				"ratingsLink": "https://www.greatschools.org/california/oakland/216-New-Highland-Academy/?utm_source=GSAPI&utm_medium=referral",
				"reviewsLink": "https://www.greatschools.org/california/oakland/216-New-Highland-Academy/?utm_source=GSAPI&utm_medium=referral#Reviews",
				"distance": "4.04",
				"schoolStatsLink": "https://www.greatschools.org/california/oakland/216-New-Highland-Academy/?utm_source=GSAPI&utm_medium=referral"
			},
			{
				"gsId": "15028",
				"name": "Rise Community School",
				"type": "public",
				"gradeRange": "K-5",
				"enrollment": "290",
				"gsRating": "1",
				"parentRating": "4",
				"city": "Oakland",
				"state": "CA",
				"districtId": "14",
				"district": "Oakland Unified School District",
				"districtNCESId": "0628050",
				"address": "8521 A Street, \nOakland, CA  94621",
				"phone": "(510) 729-7732",
				"fax": "(510) 729-7734",
				"website": "www.nsdg.net/rise",
				"ncesId": "062805011559",
				"lat": "37.752094",
				"lon": "-122.17864",
				"overviewLink": "https://www.greatschools.org/california/oakland/15028-Rise-Community-School/?utm_source=GSAPI&utm_medium=referral",
				"ratingsLink": "https://www.greatschools.org/california/oakland/15028-Rise-Community-School/?utm_source=GSAPI&utm_medium=referral",
				"reviewsLink": "https://www.greatschools.org/california/oakland/15028-Rise-Community-School/?utm_source=GSAPI&utm_medium=referral#Reviews",
				"distance": "4.04",
				"schoolStatsLink": "https://www.greatschools.org/california/oakland/15028-Rise-Community-School/?utm_source=GSAPI&utm_medium=referral"
			},
			{
				"gsId": "261",
				"name": "Esperanza Elementary School",
				"type": "public",
				"gradeRange": "K-5",
				"enrollment": "352",
				"gsRating": "3",
				"parentRating": "5",
				"city": "Oakland",
				"state": "CA",
				"districtId": "14",
				"district": "Oakland Unified School District",
				"districtNCESId": "0628050",
				"address": "10315 E Street, \nOakland, CA  94603",
				"phone": "(510) 639-3367",
				"fax": "(510) 639-3370",
				"website": "",
				"ncesId": "062805004317",
				"lat": "37.7375",
				"lon": "-122.17355",
				"overviewLink": "https://www.greatschools.org/california/oakland/261-Esperanza-Elementary-School/?utm_source=GSAPI&utm_medium=referral",
				"ratingsLink": "https://www.greatschools.org/california/oakland/261-Esperanza-Elementary-School/?utm_source=GSAPI&utm_medium=referral",
				"reviewsLink": "https://www.greatschools.org/california/oakland/261-Esperanza-Elementary-School/?utm_source=GSAPI&utm_medium=referral#Reviews",
				"distance": "4.12",
				"schoolStatsLink": "https://www.greatschools.org/california/oakland/261-Esperanza-Elementary-School/?utm_source=GSAPI&utm_medium=referral"
			},
			{
				"gsId": "17115",
				"name": "Fred T. Korematsu Discovery Academy",
				"type": "public",
				"gradeRange": "K-5",
				"enrollment": "413",
				"gsRating": "2",
				"parentRating": "5",
				"city": "Oakland",
				"state": "CA",
				"districtId": "14",
				"district": "Oakland Unified School District",
				"districtNCESId": "0628050",
				"address": "10315 E Street, \nOakland, CA  94603",
				"phone": "(510) 639-3377",
				"fax": "(510) 639-3380",
				"website": "",
				"ncesId": "062805011977",
				"lat": "37.7375",
				"lon": "-122.17355",
				"overviewLink": "https://www.greatschools.org/california/oakland/17115-Fred-T.-Korematsu-Discovery-Academy/?utm_source=GSAPI&utm_medium=referral",
				"ratingsLink": "https://www.greatschools.org/california/oakland/17115-Fred-T.-Korematsu-Discovery-Academy/?utm_source=GSAPI&utm_medium=referral",
				"reviewsLink": "https://www.greatschools.org/california/oakland/17115-Fred-T.-Korematsu-Discovery-Academy/?utm_source=GSAPI&utm_medium=referral#Reviews",
				"distance": "4.12",
				"schoolStatsLink": "https://www.greatschools.org/california/oakland/17115-Fred-T.-Korematsu-Discovery-Academy/?utm_source=GSAPI&utm_medium=referral"
			},
			{
				"gsId": "205",
				"name": "Franklin Elementary School",
				"type": "public",
				"gradeRange": "K-5",
				"enrollment": "750",
				"gsRating": "4",
				"parentRating": "5",
				"city": "Oakland",
				"state": "CA",
				"districtId": "14",
				"district": "Oakland Unified School District",
				"districtNCESId": "0628050",
				"address": "915 Foothill Boulevard, \nOakland, CA  94606",
				"phone": "(510) 874-3354",
				"fax": "(510) 874-3358",
				"website": "http://www.franklintigers.org",
				"ncesId": "062805004261",
				"lat": "37.793793",
				"lon": "-122.24829",
				"overviewLink": "https://www.greatschools.org/california/oakland/205-Franklin-Elementary-School/?utm_source=GSAPI&utm_medium=referral",
				"ratingsLink": "https://www.greatschools.org/california/oakland/205-Franklin-Elementary-School/?utm_source=GSAPI&utm_medium=referral",
				"reviewsLink": "https://www.greatschools.org/california/oakland/205-Franklin-Elementary-School/?utm_source=GSAPI&utm_medium=referral#Reviews",
				"distance": "4.16",
				"schoolStatsLink": "https://www.greatschools.org/california/oakland/205-Franklin-Elementary-School/?utm_source=GSAPI&utm_medium=referral"
			},
			{
				"gsId": "14231",
				"name": "Neighborhood Centers Adult Education",
				"type": "public",
				"gradeRange": "n/a",
				"city": "Oakland",
				"state": "CA",
				"districtId": "14",
				"district": "Oakland Unified School District",
				"districtNCESId": "0628050",
				"address": "750 International Boulevard, \nOakland, CA  94606",
				"phone": "(510) 273-2300",
				"fax": "(510) 452-2077",
				"website": "",
				"ncesId": "062805013630",
				"lat": "37.793888",
				"lon": "-122.25135",
				"overviewLink": "https://www.greatschools.org/california/oakland/14231-Neighborhood-Centers-Adult-Education/?utm_source=GSAPI&utm_medium=referral",
				"ratingsLink": "https://www.greatschools.org/california/oakland/14231-Neighborhood-Centers-Adult-Education/?utm_source=GSAPI&utm_medium=referral",
				"reviewsLink": "https://www.greatschools.org/california/oakland/14231-Neighborhood-Centers-Adult-Education/?utm_source=GSAPI&utm_medium=referral#Reviews",
				"distance": "4.17",
				"schoolStatsLink": "https://www.greatschools.org/california/oakland/14231-Neighborhood-Centers-Adult-Education/?utm_source=GSAPI&utm_medium=referral"
			},
			{
				"gsId": "11912",
				"name": "Melrose Leadership Academy",
				"type": "public",
				"gradeRange": "PK-8",
				"enrollment": "479",
				"gsRating": "3",
				"parentRating": "5",
				"city": "Oakland",
				"state": "CA",
				"districtId": "14",
				"district": "Oakland Unified School District",
				"districtNCESId": "0628050",
				"address": "4730 Fleming Avenue, \nOakland, CA  94619",
				"phone": "(510) 535-3832",
				"fax": "(510) 535-3838",
				"website": "http://melroseleadership.ousd.k12.ca.us",
				"ncesId": "062805008679",
				"lat": "37.780327",
				"lon": "-122.19779",
				"overviewLink": "https://www.greatschools.org/california/oakland/11912-Melrose-Leadership-Academy/?utm_source=GSAPI&utm_medium=referral",
				"ratingsLink": "https://www.greatschools.org/california/oakland/11912-Melrose-Leadership-Academy/?utm_source=GSAPI&utm_medium=referral",
				"reviewsLink": "https://www.greatschools.org/california/oakland/11912-Melrose-Leadership-Academy/?utm_source=GSAPI&utm_medium=referral#Reviews",
				"distance": "4.26",
				"schoolStatsLink": "https://www.greatschools.org/california/oakland/11912-Melrose-Leadership-Academy/?utm_source=GSAPI&utm_medium=referral"
			},
			{
				"gsId": "236",
				"name": "Manzanita Community",
				"type": "public",
				"gradeRange": "K-5",
				"enrollment": "395",
				"gsRating": "1",
				"parentRating": "3",
				"city": "Oakland",
				"state": "CA",
				"districtId": "14",
				"district": "Oakland Unified School District",
				"districtNCESId": "0628050",
				"address": "2409 East 27th Street, \nOakland, CA  94601",
				"phone": "(510) 535-2822",
				"fax": "(510) 535-2825",
				"website": "http://www.ousd.k12.ca.us",
				"ncesId": "062805004294",
				"lat": "37.792206",
				"lon": "-122.2239",
				"overviewLink": "https://www.greatschools.org/california/oakland/236-Manzanita-Community/?utm_source=GSAPI&utm_medium=referral",
				"ratingsLink": "https://www.greatschools.org/california/oakland/236-Manzanita-Community/?utm_source=GSAPI&utm_medium=referral",
				"reviewsLink": "https://www.greatschools.org/california/oakland/236-Manzanita-Community/?utm_source=GSAPI&utm_medium=referral#Reviews",
				"distance": "4.27",
				"schoolStatsLink": "https://www.greatschools.org/california/oakland/236-Manzanita-Community/?utm_source=GSAPI&utm_medium=referral"
			},
			{
				"gsId": "15026",
				"name": "Manzanita Seed",
				"type": "public",
				"gradeRange": "K-5",
				"enrollment": "439",
				"gsRating": "4",
				"parentRating": "4",
				"city": "Oakland",
				"state": "CA",
				"districtId": "14",
				"district": "Oakland Unified School District",
				"districtNCESId": "0628050",
				"address": "2409 East 27th Street, \nOakland, CA  94601",
				"phone": "(510) 535-2832",
				"fax": "(510) 535-2825",
				"website": "www.nsdg.net/seed",
				"ncesId": "062805011557",
				"lat": "37.792206",
				"lon": "-122.2239",
				"overviewLink": "https://www.greatschools.org/california/oakland/15026-Manzanita-Seed/?utm_source=GSAPI&utm_medium=referral",
				"ratingsLink": "https://www.greatschools.org/california/oakland/15026-Manzanita-Seed/?utm_source=GSAPI&utm_medium=referral",
				"reviewsLink": "https://www.greatschools.org/california/oakland/15026-Manzanita-Seed/?utm_source=GSAPI&utm_medium=referral#Reviews",
				"distance": "4.27",
				"schoolStatsLink": "https://www.greatschools.org/california/oakland/15026-Manzanita-Seed/?utm_source=GSAPI&utm_medium=referral"
			},
			{
				"gsId": "12550",
				"name": "Metwest High School",
				"type": "public",
				"gradeRange": "9-12",
				"enrollment": "163",
				"gsRating": "3",
				"parentRating": "4",
				"city": "Oakland",
				"state": "CA",
				"districtId": "14",
				"district": "Oakland Unified School District",
				"districtNCESId": "0628050",
				"address": "314 East Tenth Street, \nOakland, CA  94606",
				"phone": "(510) 451-5902",
				"fax": "(510) 451-5903",
				"website": "http://www.metwest.org",
				"ncesId": "062805011350",
				"lat": "37.79511",
				"lon": "-122.25823",
				"overviewLink": "https://www.greatschools.org/california/oakland/12550-Metwest-High-School/?utm_source=GSAPI&utm_medium=referral",
				"ratingsLink": "https://www.greatschools.org/california/oakland/12550-Metwest-High-School/?utm_source=GSAPI&utm_medium=referral",
				"reviewsLink": "https://www.greatschools.org/california/oakland/12550-Metwest-High-School/?utm_source=GSAPI&utm_medium=referral#Reviews",
				"distance": "4.29",
				"schoolStatsLink": "https://www.greatschools.org/california/oakland/12550-Metwest-High-School/?utm_source=GSAPI&utm_medium=referral"
			},
			{
				"gsId": "224",
				"name": "La Escuelita Elementary School",
				"type": "public",
				"gradeRange": "K-8",
				"enrollment": "359",
				"gsRating": "2",
				"parentRating": "5",
				"city": "Oakland",
				"state": "CA",
				"districtId": "14",
				"district": "Oakland Unified School District",
				"districtNCESId": "0628050",
				"address": "1100 Third Avenue, \nOakland, CA  94606",
				"phone": "(510) 874-7762",
				"fax": "(510) 874-7764",
				"website": "http://laescuelita.ousd.k12.ca.us",
				"ncesId": "062805004284",
				"lat": "37.796005",
				"lon": "-122.25727",
				"overviewLink": "https://www.greatschools.org/california/oakland/224-La-Escuelita-Elementary-School/?utm_source=GSAPI&utm_medium=referral",
				"ratingsLink": "https://www.greatschools.org/california/oakland/224-La-Escuelita-Elementary-School/?utm_source=GSAPI&utm_medium=referral",
				"reviewsLink": "https://www.greatschools.org/california/oakland/224-La-Escuelita-Elementary-School/?utm_source=GSAPI&utm_medium=referral#Reviews",
				"distance": "4.34",
				"schoolStatsLink": "https://www.greatschools.org/california/oakland/224-La-Escuelita-Elementary-School/?utm_source=GSAPI&utm_medium=referral"
			},
			{
				"gsId": "200",
				"name": "Dewey Academy",
				"type": "public",
				"gradeRange": "9-12",
				"enrollment": "201",
				"parentRating": "5",
				"city": "Oakland",
				"state": "CA",
				"districtId": "14",
				"district": "Oakland Unified School District",
				"districtNCESId": "0628050",
				"address": "1111 2nd Avenue, \nOakland, CA  94606",
				"phone": "(510) 874-3660",
				"fax": "(510) 874-3661",
				"website": "",
				"ncesId": "062805004255",
				"lat": "37.796703",
				"lon": "-122.25817",
				"overviewLink": "https://www.greatschools.org/california/oakland/200-Dewey-Academy/?utm_source=GSAPI&utm_medium=referral",
				"ratingsLink": "https://www.greatschools.org/california/oakland/200-Dewey-Academy/?utm_source=GSAPI&utm_medium=referral",
				"reviewsLink": "https://www.greatschools.org/california/oakland/200-Dewey-Academy/?utm_source=GSAPI&utm_medium=referral#Reviews",
				"distance": "4.4",
				"schoolStatsLink": "https://www.greatschools.org/california/oakland/200-Dewey-Academy/?utm_source=GSAPI&utm_medium=referral"
			},
			{
				"gsId": "237",
				"name": "Markham Elementary School",
				"type": "public",
				"gradeRange": "K-5",
				"enrollment": "400",
				"gsRating": "1",
				"parentRating": "3",
				"city": "Oakland",
				"state": "CA",
				"districtId": "14",
				"district": "Oakland Unified School District",
				"districtNCESId": "0628050",
				"address": "7220 Krause Avenue, \nOakland, CA  94605",
				"phone": "(510) 639-3202",
				"fax": "(510) 639-3206",
				"website": "http://www.cde.ca.gov/re/sd/details.asp?cds=01612596002059&Public=Y",
				"ncesId": "062805004296",
				"lat": "37.765297",
				"lon": "-122.17887",
				"overviewLink": "https://www.greatschools.org/california/oakland/237-Markham-Elementary-School/?utm_source=GSAPI&utm_medium=referral",
				"ratingsLink": "https://www.greatschools.org/california/oakland/237-Markham-Elementary-School/?utm_source=GSAPI&utm_medium=referral",
				"reviewsLink": "https://www.greatschools.org/california/oakland/237-Markham-Elementary-School/?utm_source=GSAPI&utm_medium=referral#Reviews",
				"distance": "4.4",
				"schoolStatsLink": "https://www.greatschools.org/california/oakland/237-Markham-Elementary-School/?utm_source=GSAPI&utm_medium=referral"
			},
			{
				"gsId": "207",
				"name": "Frick Middle School",
				"type": "public",
				"gradeRange": "6-8",
				"enrollment": "204",
				"gsRating": "1",
				"parentRating": "4",
				"city": "Oakland",
				"state": "CA",
				"districtId": "14",
				"district": "Oakland Unified School District",
				"districtNCESId": "0628050",
				"address": "2845 64th Avenue, \nOakland, CA  94605",
				"phone": "(510) 729-7736",
				"fax": "(510) 729-7739",
				"website": "http://ousdms.ousd.k12.ca.us/frick",
				"ncesId": "062805004263",
				"lat": "37.771515",
				"lon": "-122.18349",
				"overviewLink": "https://www.greatschools.org/california/oakland/207-Frick-Middle-School/?utm_source=GSAPI&utm_medium=referral",
				"ratingsLink": "https://www.greatschools.org/california/oakland/207-Frick-Middle-School/?utm_source=GSAPI&utm_medium=referral",
				"reviewsLink": "https://www.greatschools.org/california/oakland/207-Frick-Middle-School/?utm_source=GSAPI&utm_medium=referral#Reviews",
				"distance": "4.42",
				"schoolStatsLink": "https://www.greatschools.org/california/oakland/207-Frick-Middle-School/?utm_source=GSAPI&utm_medium=referral"
			},
			{
				"gsId": "17689",
				"name": "East Oakland Pride Elementary School",
				"type": "public",
				"gradeRange": "K-5",
				"enrollment": "420",
				"gsRating": "2",
				"parentRating": "5",
				"city": "Oakland",
				"state": "CA",
				"districtId": "14",
				"district": "Oakland Unified School District",
				"districtNCESId": "0628050",
				"address": "8000 Birch Street, \nOakland, CA  94621",
				"phone": "(510) 636-8217",
				"fax": "(510) 879-1629",
				"website": "http://ousdes1.ousd.k12.ca.us/eop",
				"ncesId": "062805012059",
				"lat": "37.759064",
				"lon": "-122.17445",
				"overviewLink": "https://www.greatschools.org/california/oakland/17689-East-Oakland-Pride-Elementary-School/?utm_source=GSAPI&utm_medium=referral",
				"ratingsLink": "https://www.greatschools.org/california/oakland/17689-East-Oakland-Pride-Elementary-School/?utm_source=GSAPI&utm_medium=referral",
				"reviewsLink": "https://www.greatschools.org/california/oakland/17689-East-Oakland-Pride-Elementary-School/?utm_source=GSAPI&utm_medium=referral#Reviews",
				"distance": "4.42",
				"schoolStatsLink": "https://www.greatschools.org/california/oakland/17689-East-Oakland-Pride-Elementary-School/?utm_source=GSAPI&utm_medium=referral"
			},
			{
				"gsId": "25123",
				"name": "Gateway To College at Laney College School",
				"type": "public",
				"gradeRange": "9-12",
				"enrollment": "90",
				"gsRating": "1",
				"parentRating": "5",
				"city": "Oakland",
				"state": "CA",
				"districtId": "14",
				"district": "Oakland Unified School District",
				"districtNCESId": "0628050",
				"address": "900 Fallon Street, \nOakland, CA  94607",
				"phone": "(510) 464-3592",
				"fax": "(510) 464-3231",
				"website": "www.elaney.org/wp/gateway",
				"ncesId": "062805012506",
				"lat": "37.797153",
				"lon": "-122.26377",
				"overviewLink": "https://www.greatschools.org/california/oakland/25123-Gateway-To-College-At-Laney-College-School/?utm_source=GSAPI&utm_medium=referral",
				"ratingsLink": "https://www.greatschools.org/california/oakland/25123-Gateway-To-College-At-Laney-College-School/?utm_source=GSAPI&utm_medium=referral",
				"reviewsLink": "https://www.greatschools.org/california/oakland/25123-Gateway-To-College-At-Laney-College-School/?utm_source=GSAPI&utm_medium=referral#Reviews",
				"distance": "4.48",
				"schoolStatsLink": "https://www.greatschools.org/california/oakland/25123-Gateway-To-College-At-Laney-College-School/?utm_source=GSAPI&utm_medium=referral"
			},
			{
				"gsId": "184",
				"name": "Allendale Elementary School",
				"type": "public",
				"gradeRange": "K-5",
				"enrollment": "374",
				"gsRating": "1",
				"parentRating": "3",
				"city": "Oakland",
				"state": "CA",
				"districtId": "14",
				"district": "Oakland Unified School District",
				"districtNCESId": "0628050",
				"address": "3670 Penniman Avenue, \nOakland, CA  94619",
				"phone": "(510) 535-2812",
				"fax": "(510) 535-2815",
				"website": "http://ousdes1.ousd.k12.ca.us/allendale",
				"ncesId": "062805004238",
				"lat": "37.788643",
				"lon": "-122.20516",
				"overviewLink": "https://www.greatschools.org/california/oakland/184-Allendale-Elementary-School/?utm_source=GSAPI&utm_medium=referral",
				"ratingsLink": "https://www.greatschools.org/california/oakland/184-Allendale-Elementary-School/?utm_source=GSAPI&utm_medium=referral",
				"reviewsLink": "https://www.greatschools.org/california/oakland/184-Allendale-Elementary-School/?utm_source=GSAPI&utm_medium=referral#Reviews",
				"distance": "4.48",
				"schoolStatsLink": "https://www.greatschools.org/california/oakland/184-Allendale-Elementary-School/?utm_source=GSAPI&utm_medium=referral"
			},
			{
				"gsId": "17059",
				"name": "Alliance Academy",
				"type": "public",
				"gradeRange": "6-8",
				"enrollment": "371",
				"gsRating": "1",
				"parentRating": "4",
				"city": "Oakland",
				"state": "CA",
				"districtId": "14",
				"district": "Oakland Unified School District",
				"districtNCESId": "0628050",
				"address": "1800 98th Avenue, \nOakland, CA  94603",
				"phone": "(510) 639-2893",
				"fax": "(510) 639-3387",
				"website": "http://ousdms.ousd.k12.ca.us/alliance",
				"ncesId": "062805012027",
				"lat": "37.746372",
				"lon": "-122.16609",
				"overviewLink": "https://www.greatschools.org/california/oakland/17059-Alliance-Academy/?utm_source=GSAPI&utm_medium=referral",
				"ratingsLink": "https://www.greatschools.org/california/oakland/17059-Alliance-Academy/?utm_source=GSAPI&utm_medium=referral",
				"reviewsLink": "https://www.greatschools.org/california/oakland/17059-Alliance-Academy/?utm_source=GSAPI&utm_medium=referral#Reviews",
				"distance": "4.6",
				"schoolStatsLink": "https://www.greatschools.org/california/oakland/17059-Alliance-Academy/?utm_source=GSAPI&utm_medium=referral"
			},
			{
				"gsId": "17060",
				"name": "Elmhurst Community Prep School",
				"type": "public",
				"gradeRange": "6-8",
				"enrollment": "371",
				"gsRating": "1",
				"parentRating": "4",
				"city": "Oakland",
				"state": "CA",
				"districtId": "14",
				"district": "Oakland Unified School District",
				"districtNCESId": "0628050",
				"address": "1800 98th Avenue, \nOakland, CA  94603",
				"phone": "(510) 639-2888",
				"fax": "(510) 639-2891",
				"website": "http://www.elmhurstcommunityprep.org",
				"ncesId": "062805011961",
				"lat": "37.746372",
				"lon": "-122.16609",
				"overviewLink": "https://www.greatschools.org/california/oakland/17060-Elmhurst-Community-Prep-School/?utm_source=GSAPI&utm_medium=referral",
				"ratingsLink": "https://www.greatschools.org/california/oakland/17060-Elmhurst-Community-Prep-School/?utm_source=GSAPI&utm_medium=referral",
				"reviewsLink": "https://www.greatschools.org/california/oakland/17060-Elmhurst-Community-Prep-School/?utm_source=GSAPI&utm_medium=referral#Reviews",
				"distance": "4.6",
				"schoolStatsLink": "https://www.greatschools.org/california/oakland/17060-Elmhurst-Community-Prep-School/?utm_source=GSAPI&utm_medium=referral"
			},
			{
				"gsId": "298",
				"name": "John Muir Middle School",
				"type": "public",
				"gradeRange": "6-8",
				"enrollment": "969",
				"gsRating": "3",
				"parentRating": "4",
				"city": "San Leandro",
				"state": "CA",
				"districtId": "17",
				"district": "San Leandro Unified School District",
				"districtNCESId": "0634680",
				"address": "1444 Williams Street, \nSan Leandro, CA  94577",
				"phone": "(510) 618-4400",
				"fax": "(510) 667-3545",
				"website": "http://www.sanleandro.k12.ca.us/muir",
				"ncesId": "063468005839",
				"lat": "37.714146",
				"lon": "-122.16817",
				"overviewLink": "https://www.greatschools.org/california/san-leandro/298-John-Muir-Middle-School/?utm_source=GSAPI&utm_medium=referral",
				"ratingsLink": "https://www.greatschools.org/california/san-leandro/298-John-Muir-Middle-School/?utm_source=GSAPI&utm_medium=referral",
				"reviewsLink": "https://www.greatschools.org/california/san-leandro/298-John-Muir-Middle-School/?utm_source=GSAPI&utm_medium=referral#Reviews",
				"distance": "4.62",
				"schoolStatsLink": "https://www.greatschools.org/california/san-leandro/298-John-Muir-Middle-School/?utm_source=GSAPI&utm_medium=referral"
			},
			{
				"gsId": "186",
				"name": "Bella Vista Elementary School",
				"type": "public",
				"gradeRange": "K-5",
				"enrollment": "462",
				"gsRating": "5",
				"parentRating": "4",
				"city": "Oakland",
				"state": "CA",
				"districtId": "14",
				"district": "Oakland Unified School District",
				"districtNCESId": "0628050",
				"address": "1025 East 28th Street, \nOakland, CA  94610",
				"phone": "(510) 436-4900",
				"fax": "(510) 436-4925",
				"website": "http://ousdes1.ousd.k12.ca.us/bellavista",
				"ncesId": "062805004241",
				"lat": "37.800354",
				"lon": "-122.23708",
				"overviewLink": "https://www.greatschools.org/california/oakland/186-Bella-Vista-Elementary-School/?utm_source=GSAPI&utm_medium=referral",
				"ratingsLink": "https://www.greatschools.org/california/oakland/186-Bella-Vista-Elementary-School/?utm_source=GSAPI&utm_medium=referral",
				"reviewsLink": "https://www.greatschools.org/california/oakland/186-Bella-Vista-Elementary-School/?utm_source=GSAPI&utm_medium=referral#Reviews",
				"distance": "4.66",
				"schoolStatsLink": "https://www.greatschools.org/california/oakland/186-Bella-Vista-Elementary-School/?utm_source=GSAPI&utm_medium=referral"
			},
			{
				"gsId": "230",
				"name": "Lincoln Elementary School",
				"type": "public",
				"gradeRange": "K-5",
				"enrollment": "608",
				"gsRating": "7",
				"parentRating": "4",
				"city": "Oakland",
				"state": "CA",
				"districtId": "14",
				"district": "Oakland Unified School District",
				"districtNCESId": "0628050",
				"address": "225 11th Street, \nOakland, CA  94607",
				"phone": "(510) 874-3372",
				"fax": "(510) 872-3375",
				"website": "https://lincolnschooloakland.org/",
				"ncesId": "062805004289",
				"lat": "37.80011",
				"lon": "-122.26715",
				"overviewLink": "https://www.greatschools.org/california/oakland/230-Lincoln-Elementary-School/?utm_source=GSAPI&utm_medium=referral",
				"ratingsLink": "https://www.greatschools.org/california/oakland/230-Lincoln-Elementary-School/?utm_source=GSAPI&utm_medium=referral",
				"reviewsLink": "https://www.greatschools.org/california/oakland/230-Lincoln-Elementary-School/?utm_source=GSAPI&utm_medium=referral#Reviews",
				"distance": "4.72",
				"schoolStatsLink": "https://www.greatschools.org/california/oakland/230-Lincoln-Elementary-School/?utm_source=GSAPI&utm_medium=referral"
			},
			{
				"gsId": "208",
				"name": "Fruitvale Elementary School",
				"type": "public",
				"gradeRange": "K-5",
				"enrollment": "374",
				"gsRating": "1",
				"parentRating": "4",
				"city": "Oakland",
				"state": "CA",
				"districtId": "14",
				"district": "Oakland Unified School District",
				"districtNCESId": "0628050",
				"address": "3200 Boston Avenue, \nOakland, CA  94602",
				"phone": "(510) 535-2840",
				"fax": "(510) 535-2843",
				"website": "http://ousdes1.ousd.k12.ca.us/fruitvale",
				"ncesId": "062805004264",
				"lat": "37.796227",
				"lon": "-122.21407",
				"overviewLink": "https://www.greatschools.org/california/oakland/208-Fruitvale-Elementary-School/?utm_source=GSAPI&utm_medium=referral",
				"ratingsLink": "https://www.greatschools.org/california/oakland/208-Fruitvale-Elementary-School/?utm_source=GSAPI&utm_medium=referral",
				"reviewsLink": "https://www.greatschools.org/california/oakland/208-Fruitvale-Elementary-School/?utm_source=GSAPI&utm_medium=referral#Reviews",
				"distance": "4.72",
				"schoolStatsLink": "https://www.greatschools.org/california/oakland/208-Fruitvale-Elementary-School/?utm_source=GSAPI&utm_medium=referral"
			},
			{
				"gsId": "302",
				"name": "Wilson Elementary School",
				"type": "public",
				"gradeRange": "K-5",
				"enrollment": "714",
				"gsRating": "5",
				"parentRating": "3",
				"city": "San Leandro",
				"state": "CA",
				"districtId": "17",
				"district": "San Leandro Unified School District",
				"districtNCESId": "0634680",
				"address": "1300 Williams Street, \nSan Leandro, CA  94577",
				"phone": "(510) 618-4370",
				"fax": "(510) 895-4179",
				"website": "",
				"ncesId": "063468005844",
				"lat": "37.715168",
				"lon": "-122.16573",
				"overviewLink": "https://www.greatschools.org/california/san-leandro/302-Wilson-Elementary-School/?utm_source=GSAPI&utm_medium=referral",
				"ratingsLink": "https://www.greatschools.org/california/san-leandro/302-Wilson-Elementary-School/?utm_source=GSAPI&utm_medium=referral",
				"reviewsLink": "https://www.greatschools.org/california/san-leandro/302-Wilson-Elementary-School/?utm_source=GSAPI&utm_medium=referral#Reviews",
				"distance": "4.73",
				"schoolStatsLink": "https://www.greatschools.org/california/san-leandro/302-Wilson-Elementary-School/?utm_source=GSAPI&utm_medium=referral"
			},
			{
				"gsId": "15025",
				"name": "Reach Academy",
				"type": "public",
				"gradeRange": "K-5",
				"enrollment": "383",
				"gsRating": "1",
				"parentRating": "5",
				"city": "Oakland",
				"state": "CA",
				"districtId": "14",
				"district": "Oakland Unified School District",
				"districtNCESId": "0628050",
				"address": "9860 Sunnyside Street, \nOakland, CA  94603",
				"phone": "(510) 729-7775",
				"fax": "(510) 879-1109",
				"website": "www.nsdg.net/reach",
				"ncesId": "062805011556",
				"lat": "37.746513",
				"lon": "-122.16182",
				"overviewLink": "https://www.greatschools.org/california/oakland/15025-Reach-Academy/?utm_source=GSAPI&utm_medium=referral",
				"ratingsLink": "https://www.greatschools.org/california/oakland/15025-Reach-Academy/?utm_source=GSAPI&utm_medium=referral",
				"reviewsLink": "https://www.greatschools.org/california/oakland/15025-Reach-Academy/?utm_source=GSAPI&utm_medium=referral#Reviews",
				"distance": "4.84",
				"schoolStatsLink": "https://www.greatschools.org/california/oakland/15025-Reach-Academy/?utm_source=GSAPI&utm_medium=referral"
			},
			{
				"gsId": "30953",
				"name": "Young Adult Program",
				"type": "public",
				"gradeRange": "n/a",
				"city": "Oakland",
				"state": "CA",
				"districtId": "14",
				"district": "Oakland Unified School District",
				"districtNCESId": "0628050",
				"address": "1000 Broadway, Suite 398, \nOakland, CA  94607",
				"phone": "(510) 879-2715",
				"fax": "",
				"website": "",
				"ncesId": "062805012611",
				"lat": "37.801582",
				"lon": "-122.27208",
				"overviewLink": "https://www.greatschools.org/california/oakland/30953-Young-Adult-Program/?utm_source=GSAPI&utm_medium=referral",
				"ratingsLink": "https://www.greatschools.org/california/oakland/30953-Young-Adult-Program/?utm_source=GSAPI&utm_medium=referral",
				"reviewsLink": "https://www.greatschools.org/california/oakland/30953-Young-Adult-Program/?utm_source=GSAPI&utm_medium=referral#Reviews",
				"distance": "4.88",
				"schoolStatsLink": "https://www.greatschools.org/california/oakland/30953-Young-Adult-Program/?utm_source=GSAPI&utm_medium=referral"
			},
			{
				"gsId": "196",
				"name": "Cleveland Elementary School",
				"type": "public",
				"gradeRange": "K-5",
				"enrollment": "408",
				"gsRating": "7",
				"parentRating": "5",
				"city": "Oakland",
				"state": "CA",
				"districtId": "14",
				"district": "Oakland Unified School District",
				"districtNCESId": "0628050",
				"address": "745 Cleveland Street, \nOakland, CA  94606",
				"phone": "(510) 874-3600",
				"fax": "(510) 879-1089",
				"website": "http://ousdes1.ousd.k12.ca.us/cleveland",
				"ncesId": "062805004251",
				"lat": "37.80437",
				"lon": "-122.24405",
				"overviewLink": "https://www.greatschools.org/california/oakland/196-Cleveland-Elementary-School/?utm_source=GSAPI&utm_medium=referral",
				"ratingsLink": "https://www.greatschools.org/california/oakland/196-Cleveland-Elementary-School/?utm_source=GSAPI&utm_medium=referral",
				"reviewsLink": "https://www.greatschools.org/california/oakland/196-Cleveland-Elementary-School/?utm_source=GSAPI&utm_medium=referral#Reviews",
				"distance": "4.9",
				"schoolStatsLink": "https://www.greatschools.org/california/oakland/196-Cleveland-Elementary-School/?utm_source=GSAPI&utm_medium=referral"
			},
			{
				"gsId": "187",
				"name": "Edna Brewer Middle School",
				"type": "public",
				"gradeRange": "6-8",
				"enrollment": "817",
				"gsRating": "6",
				"parentRating": "4",
				"city": "Oakland",
				"state": "CA",
				"districtId": "14",
				"district": "Oakland Unified School District",
				"districtNCESId": "0628050",
				"address": "3748 13th Avenue, \nOakland, CA  94610",
				"phone": "(510) 531-6600",
				"fax": "(510) 531-6626",
				"website": "http://ednabrewer.net",
				"ncesId": "062805004299",
				"lat": "37.803856",
				"lon": "-122.22954",
				"overviewLink": "https://www.greatschools.org/california/oakland/187-Edna-Brewer-Middle-School/?utm_source=GSAPI&utm_medium=referral",
				"ratingsLink": "https://www.greatschools.org/california/oakland/187-Edna-Brewer-Middle-School/?utm_source=GSAPI&utm_medium=referral",
				"reviewsLink": "https://www.greatschools.org/california/oakland/187-Edna-Brewer-Middle-School/?utm_source=GSAPI&utm_medium=referral#Reviews",
				"distance": "4.97",
				"schoolStatsLink": "https://www.greatschools.org/california/oakland/187-Edna-Brewer-Middle-School/?utm_source=GSAPI&utm_medium=referral"
			},
			{
				"gsId": "228",
				"name": "Laurel Elementary School",
				"type": "public",
				"gradeRange": "K-5",
				"enrollment": "559",
				"gsRating": "2",
				"parentRating": "5",
				"city": "Oakland",
				"state": "CA",
				"districtId": "14",
				"district": "Oakland Unified School District",
				"districtNCESId": "0628050",
				"address": "3750 Brown Avenue, \nOakland, CA  94619",
				"phone": "(510) 531-6868",
				"fax": "(510) 531-6725",
				"website": "http://ousdes2.ousd.k12.ca.us/laurel",
				"ncesId": "062805004287",
				"lat": "37.79307",
				"lon": "-122.19664",
				"overviewLink": "https://www.greatschools.org/california/oakland/228-Laurel-Elementary-School/?utm_source=GSAPI&utm_medium=referral",
				"ratingsLink": "https://www.greatschools.org/california/oakland/228-Laurel-Elementary-School/?utm_source=GSAPI&utm_medium=referral",
				"reviewsLink": "https://www.greatschools.org/california/oakland/228-Laurel-Elementary-School/?utm_source=GSAPI&utm_medium=referral#Reviews",
				"distance": "5.0",
				"schoolStatsLink": "https://www.greatschools.org/california/oakland/228-Laurel-Elementary-School/?utm_source=GSAPI&utm_medium=referral"
			}
		]
	}
}